[ { "key": "amsterdam", "latitude": 52.3702, "longitude": 4.8952, "name": "Amsterdam", "value": 9 }, { "key": "charleroi", "latitude": 50.4108, "longitude": 4.4446, "name": "Charleroi", "value": 6 }, { "key": "frankfurt", "latitude": 50.110924, "longitude": 8.682127, "name": "Frankfurt", "value": 9 }, { "key": "london", "latitude": 51.503399, "longitude": -0.119519, "name": "London", "value": 12 }, { "key": "paris", "latitude": 48.864716, "longitude": 2.349014, "name": "Paris", "value": 15 } ]
